[{"lat":"34.214021","lng":"-119.0573173","id":8588169,"name":"Camarillo","phone":"(805) 702-1025","schedule":"Monday 10:00am-8:00pm \r<br>Tuesday 10:00am-8:00pm \r<br>Wednesday 10:00am-8:00pm \r<br>Thursday 10:00am-8:00pm \r<br>Friday 10:00am-8:00pm \r<br>Saturday 10:00am-8:00pm\r<br>Sunday 10:00am-8:00pm","address":"950 Camarillo Center Dr. Suite 926","country":"USA","state":"CA","city":"Camarillo","postal":"93010","priority":1,"apply_to_type":1},{"lat":"33.4396873","lng":"-117.62793973","id":8588170,"name":"San Clemente","phone":"(949) 558-2044","schedule":"Monday: 10:00 AM - 7:00 PM\r<br>Tuesday: 10:00 AM - 7:00 PM\r<br>Wednesday: 10:00 AM - 7:00 PM\r<br>Thursday: 10:00 AM - 7:00 PM\r<br>Friday: 10:00 AM - 7:00 PM\r<br>\r<br>Saturday: 10:00 AM - 8:00 PM\r<br>Sunday: 10:00 AM - 8:00 PM","address":"101 W. Avenida Vista Hermosa #584","country":"USA","state":"CA","city":"San Clemente","postal":"92672","priority":2,"apply_to_type":1},{"lat":"34.185313","lng":"-118.605146","id":8588171,"name":"Woodland Hills","phone":"(818) 666-0607","schedule":"Monday 10:00am-7:00pm\r<br>Tuesday 10:00am-7:00pm\r<br>Wednesday 10:00am-7:00pm\r<br>Thursday 10:00am-7:00pm\r<br>Friday 10:00am-7:00pm \r<br>Saturday 10:00am-7:00pm\r<br>Sunday 11:00am-7:00pm","address":"6320 Topanga Canyon Blvd","country":"USA","state":"CA","city":"Woodland Hills","postal":"91367","priority":3,"apply_to_type":1},{"lat":"34.2628863","lng":"-119.2253585","id":8588172,"name":"Ventura","phone":"(805) 574-8001","schedule":"Mon-Sat 10-7\r<br>Sun- 11-5\r<br>\r<br>\r<br>Saturday: 10:00 AM - 7:00 PM\r<br>Sunday: 11:00 AM - 5:00 PM","address":"4990 Telephone Road","address2":"# 103","country":"USA","state":"CA","city":"Ventura","postal":"93003","priority":4,"apply_to_type":1},{"lat":"33.63368077","lng":"-117.91673829","id":8588173,"name":"Costa Mesa","phone":"(949) 558-2014","schedule":"Monday: 10:00 AM - 7:00 PM\r<br>Tuesday: 10:00 AM - 7:00 PM\r<br>Wednesday: 10:00 AM - 7:00 PM\r<br>Thursday: 10:00 AM - 7:00 PM\r<br>Friday: 10:00 AM - 7:00 PM\r<br>\r<br>Saturday: 10:00 AM - 6:00 PM\r<br>Sunday: 11:00 AM - 5:00 PM","address":"270 East 17th St. #3A","country":"USA","state":"CA","city":"Costa Mesa","postal":"92627","priority":5,"apply_to_type":1},{"lat":"34.0639904","lng":"-118.3993553","id":8588174,"name":"Beverly Hills","phone":"(310) 421-4739","schedule":"Monday: 10:00 AM - 7:00 PM\r<br>Tuesday: 10:00 AM - 7:00 PM\r<br>Wednesday: 10:00 AM - 7:00 PM\r<br>Thursday: 10:00 AM - 7:00 PM\r<br>Friday: 10:00 AM - 7:00 PM\r<br>\r<br>Saturday: 10:00 AM - 7:00 PM\r<br>Sunday: 11:00 AM - 5:00 PM","address":"231 S Beverly Drive","country":"USA","state":"CA","city":"Beverly Hills","postal":"90212","priority":6,"apply_to_type":1},{"lat":"34.1592762","lng":"-118.8203519","id":8588175,"name":"Westlake Village","phone":"(805) 494-0944","schedule":"Monday 10:00am - 7:00pm \r<br>Tuesday 10:00am - 7:00pm \r<br>Wednesday 10:00am - 7:00pm \r<br>Thursday 10:00am - 7:00pm \r<br>Friday 10:00am - 7:00pm \r<br>Saturday 10:00am - 7:00pm \r<br>Sunday 11:00am-5:00pm","address":"100 Promenade Way","address2":"suite E","country":"USA","state":"CA","city":"Westlake Village","postal":"91362","priority":7,"apply_to_type":1},{"lat":"33.73011289","lng":"-117.7898097","id":8588177,"name":"Tustin","phone":"(714) 669-5797","schedule":"Monday: 10:00 AM - 7:00 PM\r<br>Tuesday: 10:00 AM - 7:00 PM\r<br>Wednesday: 10:00 AM - 7:00 PM\r<br>Thursday: 10:00 AM - 7:00 PM\r<br>Friday: 10:00 AM - 7:00 PM\r<br>\r<br>Saturday: 10:00 AM - 6:00 PM\r<br>Sunday: 10:00 AM - 6:00 PM","address":"13249 Jamboree Rd","country":"USA","state":"CA","city":"Tustin","postal":"92782","priority":9,"apply_to_type":1},{"lat":"34.14012511","lng":"-118.36867467","id":8588178,"name":"Studio City","phone":"(818) 766-5159","schedule":"Monday: 9:30 AM - 6:30 PM\r<br>Tuesday: 9:30 AM - 6:30 PM\r<br>Wednesday: 9:30 AM - 6:30 PM\r<br>Thursday: 9:30 AM - 6:30 PM\r<br>Friday: 9:30 AM - 6:30 PM\r<br>\r<br>Saturday: 9:30 AM - 6:30 PM\r<br>Sunday: 11:00 AM - 5:00 PM","address":"10915 Ventura Blvd","country":"USA","state":"CA","city":"Studio City","postal":"91604","priority":10,"apply_to_type":1},{"lat":"37.3254659","lng":"-121.9436447","id":8588179,"name":"Valley Fair","phone":"(408) 248-2373","schedule":"Monday to Saturday 10am-9pm \r<br>Sunday 10am-8pm","address":"2855 Stevens Creek Blvd. #1312","country":"USA","state":"CA","city":"Santa Clara","postal":"95050","priority":11,"apply_to_type":1},{"lat":"33.7588366","lng":"-117.837531","id":8588181,"name":"Santa Ana - 17th Street","phone":"(714) 836-9254","schedule":"Monday - Friday 10am - 7pm\r<br>Saturday: 10am - 6pm\r<br>Sunday: 11am - 5pm","address":"2016 E. Seventeenth St","country":"USA","state":"CA","city":"Santa Ana","postal":"92704","priority":13,"apply_to_type":1},{"lat":"38.77456355","lng":"-121.26870945","id":8588182,"name":"Roseville - Galleria Mall","phone":"(916) 772-3800","schedule":"Monday: 10:00 AM - 8:00 PM\r<br>Tuesday: 10:00 AM - 8:00 PM\r<br>Wednesday: 10:00 AM - 8:00 PM\r<br>Thursday: 10:00 AM - 8:00 PM\r<br>Friday: 10:00 AM - 9:00 PM\r<br>\r<br>Saturday: 10:00 AM - 9:00 PM\r<br>Sunday: 11:00 AM - 7:00 PM","address":"1151 Galleria Blvd. Unit 176","country":"USA","state":"CA","city":"Roseville","postal":"95678","priority":14,"apply_to_type":1},{"lat":"33.91076145","lng":"-117.45656394","id":8588184,"name":"Riverside - Tyler","phone":"(951) 710-5131 ","schedule":"Monday: 11:00 AM - 8:00 PM\r<br>Tuesday: 11:00 AM - 8:00 PM\r<br>Wednesday: 11:00 AM - 8:00 PM\r<br>Thursday: 11:00 AM - 8:00 PM\r<br>Friday: 11:00 AM - 8:00 PM\r<br>\r<br>Saturday: 11:00 AM - 8:00 PM\r<br>Sunday: 11:00 PM - 7:00 PM","address":"1270 Galleria at Tyler #115","country":"USA","state":"CA","city":"Riverside","postal":"92503-4137","priority":16,"apply_to_type":1},{"lat":"34.07247129","lng":"-117.55442169","id":8588187,"name":"Ontario","phone":"(909) 481-7038","schedule":"Monday: 10:00 AM  - 8:00 PM\r<br>Tuesday: 10:00 AM  - 8:00 PM\r<br>Wednesday: 10:00 AM  - 8:00 PM\r<br>Thursday: 10:00 AM  - 9:00 PM\r<br>Friday: 10:00 AM  - 9:00 PM\r<br>\r<br>Saturday: 10:00 AM  - 9:00 PM\r<br>Sunday: 11:00 PM - 8:00 PM","address":"1 Mills Circle #524","country":"USA","state":"CA","city":"Ontario","postal":"91764","priority":19,"apply_to_type":1},{"lat":"33.65467339","lng":"-117.86846849","id":8588190,"name":"Newport Beach","phone":"(949) 261-6788","schedule":"Monday: 10:00 AM - 7:00 PM\r<br>Tuesday: 10:00 AM - 7:00 PM\r<br>Wednesday: 10:00 AM - 7:00 PM\r<br>Thursday: 10:00 AM - 7:00 PM\r<br>Friday: 10:00 AM - 7:00 PM\r<br>\r<br>Saturday: 10:00 AM - 6:00 PM\r<br>Sunday: 10:00 AM - 5:00 PM","address":"3601 Jamboree Rd. #8","country":"USA","state":"CA","city":"Newport Beach","postal":"92660","priority":22,"apply_to_type":1},{"lat":"33.90077966","lng":"-118.38388926","id":8588191,"name":"Manhattan Beach","phone":"(310) 643-6105 ","schedule":"Monday: 10:00 AM - 7:00 PM\r<br>Tuesday: 10:00 AM - 7:00 PM\r<br>Wednesday: 10:00 AM - 7:00 PM\r<br>Thursday: 10:00 AM - 7:00 PM\r<br>Friday: 10:00 AM - 7:00 PM\r<br>\r<br>Saturday: 10:00 AM - 7:00 PM\r<br>Sunday: 11:00 AM - 6:00 PM","address":"1590 Rosecrans Avenue Suite G","country":"USA","state":"CA","city":"Manhattan Beach","postal":"90266","priority":23,"apply_to_type":1},{"lat":"33.55596679","lng":"-117.7134355","id":8588192,"name":"Laguna Niguel","phone":"(949) 643-3727","schedule":"Monday: 10:00 AM - 7:00 PM\r<br>Tuesday:  10:00 AM - 7:00 PM\r<br>Wednesday:  10:00 AM - 7:00 PM\r<br>Thursday:  10:00 AM - 7:00 PM\r<br>Friday:  10:00 AM - 7:00 PM\r<br>\r<br>Saturday:  10:00 AM - 6:00 PM\r<br>Sunday:  10:00 AM - 5:00 PM","address":"27881 La Paz Rd. Suite A","country":"USA","state":"CA","city":"Laguna Niguel","postal":"92677","priority":24,"apply_to_type":1},{"lat":"33.56330157","lng":"-117.6459579","id":8588193,"name":"Ladera Ranch","phone":"(949) 347-7205","schedule":"Monday: 10:00 AM - 7:00 PM\r<br>Tuesday: 10:00 AM - 7:00 PM\r<br>Wednesday: 10:00 AM - 7:00 PM\r<br>Thursday: 10:00 AM - 7:00 PM\r<br>Friday: 10:00 AM - 7:00 PM\r<br>\r<br>Saturday: 10:00 AM - 6:00 PM\r<br>Sunday: 11:00 AM - 5:00 PM","address":"27702 Crown Valley Pkwy #C-1","country":"USA","state":"CA","city":"Ladera Ranch","postal":"92694","priority":25,"apply_to_type":1},{"lat":"33.68312377","lng":"-117.81396668","id":8588195,"name":"Irvine","phone":"(949) 474-9139 ","schedule":"Monday: 10:00 AM - 7:00 PM\r<br>Tuesday: 10:00 AM - 7:00 PM\r<br>Wednesday: 10:00 AM - 7:00 PM\r<br>Thursday: 10:00 AM - 7:00 PM\r<br>Friday: 10:00 AM - 7:00 PM\r<br>\r<br>Saturday: 10:00 AM - 6:00 PM\r<br>Sunday: 11:00 AM - 5:00 PM","address":"3881 C Alton Pkwy","country":"USA","state":"CA","city":"Irvine","postal":"92606","priority":27,"apply_to_type":1},{"lat":"33.68004079","lng":"-118.00340174","id":8588196,"name":"Huntington Beach","phone":"(714) 462-8222","schedule":"Monday: 10:00 AM - 7:00 PM\r<br>Tuesday: 10:00 AM - 7:00 PM\r<br>Wednesday: 10:00 AM - 7:00 PM\r<br>Thursday: 10:00 AM - 7:00 PM\r<br>Friday: 10:00 AM - 7:00 PM\r<br>\r<br>Saturday: 10:00 AM - 6:00 PM\r<br>Sunday: 11:00 AM - 5:00 PM","address":"7101 Yorktown Ave. #103","country":"USA","state":"CA","city":"Huntington Beach","postal":"92648","priority":28,"apply_to_type":1},{"lat":"34.15697405","lng":"-118.49049392","id":8588197,"name":"Encino","phone":"(818) 990-1389","schedule":"Monday: 10:00 AM - 6:00 PM\r<br>Tuesday: 10:00 AM - 6:00 PM\r<br>Wednesday: 10:00 AM - 6:00 PM\r<br>Thursday: 10:00 AM - 6:00 PM\r<br>Friday: 10:00 AM - 6:00 PM\r<br>\r<br>Saturday: 10:00 AM - 6:00 PM\r<br>Sunday: 11:00 AM - 5:00 PM","address":"16417 Ventura blvd","country":"USA","state":"CA","city":"Encino","postal":"91436","priority":30,"apply_to_type":1},{"lat":"33.49220762","lng":"-117.69947942","id":8588199,"name":"Dana Point","phone":"(949) 493-7111","schedule":"Monday: 9:00am- 7:00pm \r<br>Tuesday:  9:00am- 7:00pm\r<br>Wednesday:  9:00am- 7:00pm\r<br>Thursday:  9:00am- 7:00pm\r<br>Friday:  9:00am- 7:00pm\r<br>Saturday: 9:00am- 6:00pm\r<br>Sunday: 10:00am- 5:00pm","address":"32525 Golden Lantern #D","country":"USA","state":"CA","city":"Dana Point","postal":"92629","priority":32,"apply_to_type":1},{"lat":"33.8614649","lng":"-117.7912492","id":8588202,"name":"Anaheim Hills","phone":"(714) 693-8787","schedule":"Monday - Friday : 10am - 7pm \r<br>Saturday : 10am - 6pm\r<br>Sunday : 11am - 5pm","address":"5655 E. La Palma Ave #123","country":"USA","state":"CA","city":"Anaheim","postal":"92807","priority":36,"apply_to_type":1},{"lat":"33.9789977","lng":"-118.4379643","id":12316044,"name":"Marina Del Rey","description":"Hours\r<br>Monday - Thurs: 10-7\r<br>Friday- Sat: 10-7\r<br>Sunday: 11-6","address":"4722 Admiralty Way #A-17","country":"USA","state":"CA","city":"Marina Del Rey","postal":"90292","priority":1,"apply_to_type":1}]